[
    {
        "name": "Мята Lounge",
        "description": "1.6/5",
        "coordinates": [55.798358, 37.527462],
        "reviewLink": "https://t.me/KudaHookah/7",
        "photo": "https://avatars.mds.yandex.net/get-altay/1546430/2a0000016ce304cb92798b379a97ed1dc2bf/XXXL",
        "address": "ул. Викторенко, 4, корп. 1",
        "phone": "+7 (968) 430-82-82",
        "hours": "Круглосуточно",
        "district": "САО"
    },
    {
        "name": "MistyWood Парк Мира",
        "description": "4.2/5",
        "coordinates": [55.800595, 37.636680],
        "reviewLink": "https://t.me/KudaHookah/11",
        "photo": "https://avatars.mds.yandex.net/get-altay/5485499/2a0000017e7c753f72263912131ec6850b30/XXXL",
        "address": "просп. Мира, 102, корп. 1",
        "phone": "+7 (499) 455-55-45 (доб. 3)",
        "hours": "Пн–Вс: 12:00–02:00",
        "district": "СВАО"
    },
    {
        "name": "Мята Platinum Symbol",
        "description": "4.6/5",
        "coordinates": [55.750683, 37.706840],
        "reviewLink": "https://t.me/KudaHookah/13",
        "photo": "https://avatars.mds.yandex.net/get-altay/16230048/2a0000019513cf4ccc9b8af1dea577852068/XXXL",
        "address": "ул. Крузенштерна, 12, корп. 3",
        "phone": "+7 (903) 770-77-11",
        "hours": "Пн–Вс: 12:00–03:00",
        "district": "ЮВАО"
    },
    {
        "name": "HookahPlace Haven",
        "description": "4.9/5",
        "coordinates": [55.714044, 37.670142],
        "reviewLink": "https://t.me/KudaHookah/17",
        "photo": "https://avatars.mds.yandex.net/get-tycoon/14443915/2a000001963f3df05f7c06a148c915aafb10/priority-headline-background",
        "address": "1-я ул. Машиностроения, 10",
        "phone": "+7 (925) 750-01-74",
        "hours": "Круглосуточно",
        "district": "ЮВАО"
    },
    {
        "name": "МСК Lounge Варшавская",
        "description": "2.8/5",
        "coordinates": [55.654035, 37.624391],
        "reviewLink": "https://t.me/KudaHookah/22",
        "photo": "https://avatars.mds.yandex.net/get-altay/13671440/2a00000194895aae51a9c7ee1b7e60a706a6/XXXL",
        "address": "Каширский проезд, 25к2",
        "phone": "+7 (495) 166-25-25",
        "hours": "Пн–Пт: 11:00–05:00, Сб–Вс: 12:00–05:00",
        "district": "ЮАО"
    }
]
